[
  {
    "name": "PHARMACIE B.S.A",
    "phone": "(225) 07 77 81 19 23  / (225) 07 77 74 70 21 ",
    "owner": "M. SYLLA CHEICK OUMAR",
    "address": "ABOBO ANOKOUA KOUTE SUR L’AXE ABOBO ANYAMA PRES DE LA CIE ET DE LA NOUVELLE GARE INTERNATIONALE",
    "lng": 0,
    "lat": 0,
    "isGuard": false,
    "guardPeriod": "",
    "section": "ABOBO",
    "area": "ABOBO",
    "img": ""
  },
  {
    "name": "PHARMACIE DE LA ME (NOUVELLE)",
    "phone": "(225) 27 24 38 38 88 / (225) 07 07 91 19 99",
    "owner": "M. N'DOUFFOU JOEL DON",
    "address": "ABOBO GARE GRAND MARCHE ENTRE LA MAIRIE ET LA GENDARMERIE, VOIE EXPRESS D’ANYAMA",
    "lng": 0,
    "lat": 0,
    "isGuard": false,
    "guardPeriod": "",
    "section": "ABOBO",
    "area": "ABOBO",
    "img": ""
  },
  {
    "name": "PHARMACIE MATENE (NOUVELLE)",
    "phone": "(225) 25 23 01 20 34 / (225) 01 03 26 08 50",
    "owner": "MME COULIBALY TRAORE",
    "address": "ABOBO AVOCATIER / ENTRE LA DGI ET LA CIE / ABOBO NORD A 400 M DU CAMP COMMANDO",
    "lng": 0,
    "lat": 0,
    "isGuard": false,
    "guardPeriod": "",
    "section": "ABOBO",
    "area": "ABOBO",
    "img": ""
  },
  {
    "name": "PHARMACIE DU MARCHE AKEIKOI",
    "phone": "(225) 27 24 39 00 35 / (225) 07 49 68 23 22",
    "owner": "MME KONATE ARAMATOU",
    "address": "ABOBO AKEIKOI / ZONE DU MARCHE",
    "lng": 0,
    "lat": 0,
    "isGuard": false,
    "guardPeriod": "",
    "section": "ABOBO",
    "area": "ABOBO",
    "img": ""
  },
  {
    "name": "PHARMACIE N’GOHESSE",
    "phone": "(225) 07 09 84 14 71 / (225) 07 49 50 68 96",
    "owner": "M. N’GOHESSE PARFAIT",
    "address": "PLAQUE I / ENTRE LE FOYER FEMININ ET LE MARCHE DE NUIT",
    "lng": 0,
    "lat": 0,
    "isGuard": false,
    "guardPeriod": "",
    "section": "ABOBO",
    "area": "ABOBO",
    "img": ""
  },
  {
    "name": "PHARMACIE ROND POINT SAMAKE (EX MANZAN)",
    "phone": "(225) 01 01 01 66 51 / (225) 07 09 86 70 74",
    "owner": "M. DJOHOU PHILIPPE",
    "address": "ABOBO CARREFOUR SAMANKE",
    "lng": 0,
    "lat": 0,
    "isGuard": false,
    "guardPeriod": "",
    "section": "ABOBO",
    "area": "ABOBO",
    "img": ""
  },
  {
    "name": "PHARMACIE LA PAIX",
    "phone": "(225) 25 24 00 21 29",
    "owner": "M. KADJO THOKOUT EVRARD",
    "address": "ABOBO COCOTERAIE /CARREFOUR TOTAL DOKUI A GAUCHE EN VENANT DU ZOO/ EN FACE DU GROUPE SCOLAIRE NANTI",
    "lng": 0,
    "lat": 0,
    "isGuard": false,
    "guardPeriod": "",
    "section": "ABOBO",
    "area": "ABOBO",
    "img": ""
  },
  {
    "name": "PHARMACIE NOTRE DAME DE FATIMA",
    "phone": "(225) 07 07 77 21 49 / (225) 01 02 86 89 34",
    "owner": "MME OULAI MESSE P. ANGELE",
    "address": "ABOBO PLATEAU DOKUI / SUR VOIE MOBIL-ANGRE / FACE PAROISSE STE MONIQUE",
    "lng": 0,
    "lat": 0,
    "isGuard": false,
    "guardPeriod": "",
    "section": "ABOBO",
    "area": "ABOBO",
    "img": ""
  },
  {
    "name": "PHARMACIE BIABOU MOSQUEE",
    "phone": "(225) 01 71 51 40 85 / (225) 05 65 12 33 50",
    "owner": "MME AHOUTI-KOUAME DANIELLE",
    "address": "ABOBO BIABOU MORONOU / ROUTE D’ALEPE A COTE DE LA MOSQUEE COSIM",
    "lng": 0,
    "lat": 0,
    "isGuard": false,
    "guardPeriod": "",
    "section": "ABOBO",
    "area": "ABOBO",
    "img": ""
  },
  {
    "name": "PHARMACIE EMS SANTE",
    "phone": "(225) 01 72 53 40 40 / (225) 27 23 55 09 26",
    "owner": "MME ANOH EPSE ANDOH ASSIBLA SIDONIE",
    "address": "ABOBO AKEIKOI QUARTIER COLATIER DANS LA ZONE DE L’HOPITAL HOUPHOUET BOIGNY",
    "lng": 0,
    "lat": 0,
    "isGuard": false,
    "guardPeriod": "",
    "section": "ABOBO",
    "area": "ABOBO",
    "img": ""
  },
  {
    "name": "PHARMACIE DE L’ANTENNE",
    "phone": "(225) 05 95 20 18 69",
    "owner": "MME BAMBA -BAYOH MAMBINDOU",
    "address": "EN FACE DU 21 EME ARRONDISSEMENT ABOBO DERRIERE RAIL",
    "lng": 0,
    "lat": 0,
    "isGuard": false,
    "guardPeriod": "",
    "section": "ABOBO",
    "area": "ABOBO",
    "img": ""
  },
  {
    "name": "PHARMACIE SAINTE ANNE ABOBO BAOULE",
    "phone": "(225)  01 52 35 82 30 / (225) 05 07 65 53 10",
    "owner": "M. ABE SYLVESTRE",
    "address": "ABOBO BAOULE CARREFOUR POWER NON LOIN DU GROUPE SCOLAIRE AKE LOBA",
    "lng": 0,
    "lat": 0,
    "isGuard": false,
    "guardPeriod": "",
    "section": "ABOBO",
    "area": "ABOBO",
    "img": ""
  },
  {
    "name": "PHARMACIE FIRDAOUS",
    "phone": "(225) 07 14 01 62 59",
    "owner": "MME MOURAD HANNA EPSE KONAN",
    "address": "ABOBO ANADOR EN FACE DE COCOSERVICE / AVANT LA STATION OLA",
    "lng": 0,
    "lat": 0,
    "isGuard": false,
    "guardPeriod": "",
    "section": "ABOBO",
    "area": "ABOBO",
    "img": ""
  },
  {
    "name": "PHARMACIE SAFIR",
    "phone": "(225)  07 09 86 26 35 / (225)  05 05 83 54 83",
    "owner": "MLLE TOLO AWA",
    "address": "PK 18 / ROUTE D’ANYAMA / DERRIERE PONT / PLACE ANCIENNE BOULANGERIE ROUTE NDOTRE",
    "lng": 0,
    "lat": 0,
    "isGuard": false,
    "guardPeriod": "",
    "section": "ABOBO",
    "area": "ABOBO PK 18",
    "img": ""
  },
  {
    "name": "PHARMACIE N’DOTRE",
    "phone": "(225) 07 47 51 81 67",
    "owner": "M. DIBY N’GUESSAN FIRMIN",
    "address": "ABOBO AXE NDOTRE ANYAMA / ENVIRON 600 M CARREFOUR NDOTRE",
    "lng": 0,
    "lat": 0,
    "isGuard": false,
    "guardPeriod": "",
    "section": "ABOBO",
    "area": "ABOBO PK 18",
    "img": ""
  },
  {
    "name": "PHARMACIE ST ALEXANDRE",
    "phone": "(225) 07 59 04 35 42 / (225) 01 40 29 69 84",
    "owner": "MME KOFFI AFFOUO DOMINIQUE-ELISABETH",
    "address": "EN ALLANT AU BOIS SEC/ A L'ENTREE PRINCIPALE DE LA CITE SICOGI CONCORDE.",
    "lng": 0,
    "lat": 0,
    "isGuard": false,
    "guardPeriod": "",
    "section": "ABOBO",
    "area": "ABOBO PK 18",
    "img": ""
  },
  {
    "name": "PHARMACIE SYNOVIE",
    "phone": "(225) 01 03 91 08 54 / (225) 07 98 74 61 89",
    "owner": "M. ASSAMOI BOITRIN PASCAL",
    "address": "ABOBO N’DOTRE EN FACE MARCHE GOURO",
    "lng": 0,
    "lat": 0,
    "isGuard": false,
    "guardPeriod": "",
    "section": "ABOBO",
    "area": "ABOBO PK 18",
    "img": ""
  },
  {
    "name": "PHARMACIE ELIE FAUSTINE",
    "phone": "(225)  05 44 11 26 12 / (225) 01 40 30 69 54",
    "owner": "M. ABOYA YAPI JEAN PAUL",
    "address": "ANYAMA N’DOTRE-BLANKRO",
    "lng": 0,
    "lat": 0,
    "isGuard": false,
    "guardPeriod": "",
    "section": "ABOBO",
    "area": "ABOBO PK 18",
    "img": ""
  },
  {
    "name": "PHARMACIE LE LABELLE",
    "phone": "(225) 05 95 57 95 06  / (225) 01 43 54 40 83",
    "owner": "MME ASSEMIAN JOSSELAYNE EPSE GOULIA",
    "address": "ANYAMA QUARTIER ZOSSONKOI EXTENSION ENVIRON 500 M DE L’HOPITAL GENERAL D’ANYAMA",
    "lng": 0,
    "lat": 0,
    "isGuard": false,
    "guardPeriod": "",
    "section": "ABOBO",
    "area": "ANYAMA",
    "img": ""
  },
  {
    "name": "PHARMACIE ELIEL",
    "phone": "(225) 27 33 73 73 56 / (225) 07 69 74 22 69",
    "owner": "M.ATSE ASSI RODRIGUE",
    "address": "ANYAMA QUARTIER RAN FACE A LA GARE",
    "lng": 0,
    "lat": 0,
    "isGuard": false,
    "guardPeriod": "",
    "section": "ABOBO",
    "area": "ANYAMA",
    "img": ""
  },
  {
    "name": "PHARMACIE DU CARREFOUR ANCIENNE GENDARMERIE",
    "phone": "(225) 27 22 55 64 26",
    "owner": "M. KONAN FIRMIN DANIEL",
    "address": "BATIMENT ANCIENNE GENDARMERIE ENTRE USINE UNICAFE ET LA MORGUE D’ANYAMA",
    "lng": 0,
    "lat": 0,
    "isGuard": false,
    "guardPeriod": "",
    "section": "ABOBO",
    "area": "ANYAMA",
    "img": ""
  },
  {
    "name": "PHARMACIE DES GENERATIONS DE MONTEZO ",
    "phone": "(225) 07 57 49 38 47 / (225) 07 07 40 47 08",
    "owner": "M. BONI ALEX",
    "address": "",
    "lng": 0,
    "lat": 0,
    "isGuard": false,
    "guardPeriod": "",
    "section": "ABOBO",
    "area": "ALEPE / MONTEZO / BROFODOUME",
    "img": ""
  },
  {
    "name": "PHARMACIE DU CHATEAU D'EAU",
    "phone": "(225) 27 20 37 11 68",
    "owner": "M. SYLLA BABA",
    "address": "BD WILLIAM JACOB/ ADJAME NORD/ EN DESCENDANT LES RAILS VERS LA SODECI",
    "lng": 0,
    "lat": 0,
    "isGuard": false,
    "guardPeriod": "",
    "section": "ADJAME",
    "area": "ADJAME CENTRE",
    "img": ""
  },
  {
    "name": "PHARMACIE GBEDE",
    "phone": "(225) 07 58 09 47 03",
    "owner": "BD. NANGUI ABROGOUA",
    "address": "FACE DISPENSAIRE D’ADJAME / NON LOIN DU COMMISSARIAT DU 3EME ARRONDT ET DU GD MARCHE",
    "lng": 0,
    "lat": 0,
    "isGuard": false,
    "guardPeriod": "",
    "section": "ADJAME",
    "area": "ADJAME CENTRE",
    "img": ""
  },
  {
    "name": "PHARMACIE ADJAME BRACODI",
    "phone": "(225) 27 20 37 54 33  / (225) 07 57 49 46 08",
    "owner": "MME BLEDOU DOMINIQUE R",
    "address": "GARE NORD SOTRA DANS LA ZONE DE STATIONNEMENT DES GBAKAS / DANS LE SENS ADJAME ABOBO",
    "lng": 0,
    "lat": 0,
    "isGuard": false,
    "guardPeriod": "",
    "section": "ADJAME",
    "area": "ADJAME CENTRE",
    "img": ""
  },
  {
    "name": "PHARMACIE FRATERNITE (NVLLE)",
    "phone": "(225) 27 20 37 53 22 / (225) 01 42 90 00 20",
    "owner": "M. BOSSE KEVIN",
    "address": "PRES MATERNITE THERESE HOUPHOUET BOIGNY QUARTIER FRATERNITE",
    "lng": 0,
    "lat": 0,
    "isGuard": false,
    "guardPeriod": "",
    "section": "ADJAME",
    "area": "ADJAME CENTRE",
    "img": ""
  },
  {
    "name": "PHARMACIE ADJAME LATIN",
    "phone": "(225) 01 40 65 86 49 / (225) 05 75 16 33 30",
    "owner": "MME N’TAYE SIALA ODILE",
    "address": "PROLONGEMENT DE L'AVENUE 13 / QUARTIER LATIN HABITAT EXTENSION / PRES DU PETIT MARCHE",
    "lng": 0,
    "lat": 0,
    "isGuard": false,
    "guardPeriod": "",
    "section": "ADJAME",
    "area": "ADJAME CENTRE",
    "img": ""
  },
  {
    "name": "PHARMACIE QUARTIER EBRIE",
    "phone": "(225) 27 20 37 12 56",
    "owner": "M. LAMBIN CHRISTIAN",
    "address": "FACE GARE STIFF DALOA",
    "lng": 0,
    "lat": 0,
    "isGuard": false,
    "guardPeriod": "",
    "section": "ADJAME",
    "area": "ADJAME CENTRE",
    "img": ""
  },
  {
    "name": "PHARMACIE ST MICHEL",
    "phone": "(225) 27 20 37 09 06",
    "owner": "MME SIBALLY ASSAMOI",
    "address": "AVENUE 13 / A 50 M DE L’EGLISE ST MICHEL / EN FACE DU CEG/HARRIS",
    "lng": 0,
    "lat": 0,
    "isGuard": false,
    "guardPeriod": "",
    "section": "ADJAME",
    "area": "ADJAME CENTRE",
    "img": ""
  },
  {
    "name": "PHARMACIE MAKISSI",
    "phone": "(225) 07 57 48 54 32",
    "owner": "M. NAHO YEZOU LAURENT",
    "address": "220 LGTS / PLACE DU CINEMA LIBERTE",
    "lng": 0,
    "lat": 0,
    "isGuard": false,
    "guardPeriod": "",
    "section": "ADJAME",
    "area": "ADJAME CENTRE",
    "img": ""
  },
  {
    "name": "PHARMACIE AGOUA",
    "phone": "(225) 07 09 31 27 51 / (225) 01 40 21 32 73",
    "owner": "M. AKRE MOBIO CHRISTOPHE",
    "address": "ATTECOUBE FACE BOULANGERIE BBCO",
    "lng": 0,
    "lat": 0,
    "isGuard": false,
    "guardPeriod": "",
    "section": "ADJAME",
    "area": "ATTECOUBE",
    "img": ""
  },
  {
    "name": "PHARMACIE FATIMA (NOUVELLE)",
    "phone": "(225) 01 02 56 10 10 / (225) 05 54 89 17 73",
    "owner": "M. YAO KOUAME APPOLINAIRE",
    "address": "ATTECOUBE CARREFOUR DU PONT",
    "lng": 0,
    "lat": 0,
    "isGuard": false,
    "guardPeriod": "",
    "section": "ADJAME",
    "area": "ATTECOUBE",
    "img": ""
  },
  {
    "name": "PHARMACIE CHRIST STELLA",
    "phone": "(225) 01 71 56 18 17 / (225) 27 20 28 62 96",
    "owner": "M. TAI RAYMOND",
    "address": "CITE FAIRMOND ATTECOUBE APRES NOUVELLE GENDARMERIE",
    "lng": 0,
    "lat": 0,
    "isGuard": false,
    "guardPeriod": "",
    "section": "ADJAME",
    "area": "ATTECOUBE",
    "img": ""
  },
  {
    "name": "PHARMACIE DE WILLIAMSVILLE",
    "phone": "27 20 37 03 45 / 07 09 00 38 91",
    "owner": "MME KEHIRI LYDIE",
    "address": "FACE MOSQUEE ET MARCHE DE WILLIAMSVILLE / PRES DE LA SGBCI",
    "lng": 0,
    "lat": 0,
    "isGuard": false,
    "guardPeriod": "",
    "section": "ADJAME",
    "area": "WILLIAMSVILLE",
    "img": ""
  },
  {
    "name": "PHARMACIE CARREFOUR HMA",
    "phone": "07 79 47 39 22 / 05 76 54 52 14",
    "owner": "MME AKOMAN VERONIQUE BOSSON EPSE KOUADIO",
    "address": "PAILLET EXTENSION / NON LOIN DU ZOO CARREFOUR CIE",
    "lng": 0,
    "lat": 0,
    "isGuard": false,
    "guardPeriod": "",
    "section": "ADJAME",
    "area": "WILLIAMSVILLE",
    "img": ""
  }
]
